[
  {
    "name": "Минск, Проспект Независимости",
    "lat": 53.9045,
    "lng": 27.5615,
    "region": "Минская область",
    "difficulty": "easy"
  },
  {
    "name": "Гродно, Старый город",
    "lat": 53.6884,
    "lng": 23.8258,
    "region": "Гродненская область",
    "difficulty": "medium"
  },
  {
    "name": "Брест, Центральная площадь",
    "lat": 52.0975,
    "lng": 23.6877,
    "region": "Брестская область",
    "difficulty": "easy"
  },
  {
    "name": "Витебск, Площадь Победы",
    "lat": 55.1904,
    "lng": 30.2049,
    "region": "Витебская область",
    "difficulty": "medium"
  },
  {
    "name": "Гомель, Парк Луначарского",
    "lat": 52.4345,
    "lng": 30.9754,
    "region": "Гомельская область",
    "difficulty": "easy"
  },
  {
    "name": "Могилёв, Советская площадь",
    "lat": 53.9168,
    "lng": 30.3449,
    "region": "Могилёвская область",
    "difficulty": "medium"
  },
  {
    "name": "Минск, Площадь Независимости",
    "lat": 53.8978,
    "lng": 27.5430,
    "region": "Минская область",
    "difficulty": "easy"
  },
  {
    "name": "Пинск, Центральная площадь",
    "lat": 52.1229,
    "lng": 26.0951,
    "region": "Брестская область",
    "difficulty": "hard"
  },
  {
    "name": "Полоцк, Софийская площадь",
    "lat": 55.4831,
    "lng": 28.7696,
    "region": "Витебская область",
    "difficulty": "hard"
  },
  {
    "name": "Борисов, Центральная площадь",
    "lat": 54.2274,
    "lng": 28.5103,
    "region": "Минская область",
    "difficulty": "medium"
  },
  {
    "name": "Орша, Площадь Ленина",
    "lat": 54.5081,
    "lng": 30.4172,
    "region": "Витебская область",
    "difficulty": "hard"
  },
  {
    "name": "Барановичи, Советская площадь",
    "lat": 53.1327,
    "lng": 26.0139,
    "region": "Брестская область",
    "difficulty": "medium"
  },
  {
    "name": "Бобруйск, Площадь Ленина",
    "lat": 53.1559,
    "lng": 29.2239,
    "region": "Могилёвская область",
    "difficulty": "medium"
  },
  {
    "name": "Лида, Замковая площадь",
    "lat": 53.8881,
    "lng": 25.2985,
    "region": "Гродненская область",
    "difficulty": "hard"
  },
  {
    "name": "Мозырь, Площадь Советская",
    "lat": 52.0495,
    "lng": 29.2456,
    "region": "Гомельская область",
    "difficulty": "hard"
  },
  {
    "name": "Новополоцк, Молодёжная площадь",
    "lat": 55.5319,
    "lng": 28.6440,
    "region": "Витебская область",
    "difficulty": "hard"
  },
  {
    "name": "Слоним, Советская площадь",
    "lat": 53.0901,
    "lng": 25.3188,
    "region": "Гродненская область",
    "difficulty": "hard"
  },
  {
    "name": "Солигорск, Центральная площадь",
    "lat": 52.7943,
    "lng": 27.5423,
    "region": "Минская область",
    "difficulty": "medium"
  },
  {
    "name": "Молодечно, Площадь Ленина",
    "lat": 54.3167,
    "lng": 26.8500,
    "region": "Минская область",
    "difficulty": "medium"
  },
  {
    "name": "Жлобин, Советская площадь",
    "lat": 52.8923,
    "lng": 30.0244,
    "region": "Гомельская область",
    "difficulty": "hard"
  },
  {
    "name": "Светлогорск, Центральная площадь",
    "lat": 52.6333,
    "lng": 29.7333,
    "region": "Гомельская область",
    "difficulty": "hard"
  },
  {
    "name": "Жодино, Площадь Ленина",
    "lat": 54.0989,
    "lng": 28.3386,
    "region": "Минская область",
    "difficulty": "hard"
  },
  {
    "name": "Речица, Советская площадь",
    "lat": 52.3648,
    "lng": 30.3914,
    "region": "Гомельская область",
    "difficulty": "hard"
  },
  {
    "name": "Новогрудок, Замковая гора",
    "lat": 53.5942,
    "lng": 25.8197,
    "region": "Гродненская область",
    "difficulty": "hard"
  },
  {
    "name": "Кобрин, Площадь Ленина",
    "lat": 52.2142,
    "lng": 24.3567,
    "region": "Брестская область",
    "difficulty": "hard"
  },
  {
    "name": "Минск, Центральная улица",
    "lat": 53.9006,
    "lng": 27.5590,
    "region": "Минская область",
    "difficulty": "easy"
  },
  {
    "name": "Витебск, Проспект Фрунзе",
    "lat": 55.1836,
    "lng": 30.2028,
    "region": "Витебская область",
    "difficulty": "medium"
  },
  {
    "name": "Гомель, Проспект Ленина",
    "lat": 52.4411,
    "lng": 30.9878,
    "region": "Гомельская область",
    "difficulty": "easy"
  },
  {
    "name": "Гродно, Советская площадь",
    "lat": 53.6693,
    "lng": 23.8313,
    "region": "Гродненская область",
    "difficulty": "medium"
  },
  {
    "name": "Брест, Советская улица",
    "lat": 52.0977,
    "lng": 23.6902,
    "region": "Брестская область",
    "difficulty": "easy"
  }
]